# Time (s),Altitude (m),Vertical velocity (m/s),Vertical acceleration (m/s²),Total velocity (m/s),Total acceleration (m/s²),Position East of launch (m),Position North of launch (m),Lateral distance (m),Lateral direction (°),Lateral velocity (m/s),Lateral acceleration (m/s²),Latitude (°),Longitude (°),Gravitational acceleration (m/s²),Angle of attack (°),Roll rate (r/s),Pitch rate (r/s),Yaw rate (r/s),Mass (g),Propellant mass (g),Longitudinal moment of inertia (kg·m²),Rotational moment of inertia (kg·m²),CP location (in),CG location (in),Stability margin calibers (​),Mach number (​),Reynolds number (​),Thrust (N),Drag force (N),Drag coefficient (​),Axial drag coefficient (​),Friction drag coefficient (​),Pressure drag coefficient (​),Base drag coefficient (​),Normal force coefficient (​),Pitch moment coefficient (​),Yaw moment coefficient (​),Side force coefficient (​),Roll moment coefficient (​),Roll forcing coefficient (​),Roll damping coefficient (​),Pitch damping coefficient (​),Coriolis acceleration (m/s²),Reference length (in),Reference area (cm²),Vertical orientation (zenith) (°),Lateral orientation (azimuth) (°),Wind velocity (m/s),Air temperature (°C),Air pressure (mbar),Speed of sound (m/s),Simulation time step (s),Computation time (s)
0,0,0,-4.0561,0,4.0785,0,0,0,0,0,0.42632,32.9,-106,9.7954,84,0,0,0,36072,10649,61.456,0.1678,NaN,102.78,NaN,0.0063808,579971,204.29,1.0866e-4,0.72732,0.0019705,0.54666,0.060656,0.12001,NaN,NaN,NaN,NaN,NaN,NaN,NaN,NaN,0,6.155,191.96,84,0,NaN,14.675,1007.4,340.19,0.01,9.385e-4
0.01,0,0,7.2084,0,7.2482,0,0,0,0,0,0.75764,32.9,-106,9.7954,84,0,0,0,36072,10649,61.456,0.1678,NaN,102.78,NaN,0.0063328,575614,612.86,1.0716e-4,0.72818,0.0019729,0.54752,0.060656,0.12001,NaN,NaN,NaN,NaN,NaN,NaN,NaN,NaN,0,6.155,191.96,84,0,NaN,14.675,1007.4,340.19,0.01,0.0012427
0.02,3.6053e-4,0.072111,18.478,0.072508,18.58,3.7893e-5,0,3.7893e-5,0,0.0075792,1.9421,32.9,-106,9.7954,82.075,0,0,0,36065,10642,61.447,0.16774,NaN,102.77,NaN,0.0063107,573606,1021.4,2.4016e-4,0.72858,0.0044525,0.54792,0.060656,0.12001,NaN,NaN,NaN,NaN,NaN,NaN,NaN,NaN,8.8991e-6,6.155,191.96,84,0,NaN,14.675,1007.4,340.19,0.01,0.0015475
0.03,0.0020057,0.25694,24.627,0.25835,24.763,2.1081e-4,0,2.1081e-4,0,0.027005,2.5884,32.9,-106,9.7954,77.181,0,0,0,36058,10636,61.439,0.16768,NaN,102.76,NaN,0.0063613,578206,1244.2,9.7501e-4,0.72767,0.01779,0.547,0.060656,0.12001,NaN,NaN,NaN,NaN,NaN,NaN,NaN,NaN,3.1708e-5,6.155,191.96,84,0,NaN,14.675,1007.4,340.19,0.01,0.0019748
0.04,0.0058067,0.50327,25.203,0.50605,25.342,6.1031e-4,0,6.1031e-4,0,0.052896,2.649,32.9,-106,9.7954,70.875,0,0,0,36050,10627,61.428,0.16759,NaN,102.75,NaN,0.0065147,592146,1264.8,0.003131,0.72494,0.05447,0.54428,0.060656,0.12001,NaN,NaN,NaN,NaN,NaN,NaN,NaN,NaN,6.2108e-5,6.155,191.96,84,0,NaN,14.675,1007.4,340.19,0.01,0.0021807
0.05,0.0121,0.75539,25.333,0.75955,25.472,0.0012718,0,0.0012718,0,0.079395,2.6626,32.9,-106,9.7954,64.795,0,0,0,36040,10617,61.415,0.16748,NaN,102.74,NaN,0.0067502,613545,1269.1,0.0070567,0.72092,0.11435,0.54026,0.060656,0.12001,NaN,NaN,NaN,NaN,NaN,NaN,NaN,NaN,9.3221e-5,6.155,191.96,84,0,NaN,14.675,1007.4,340.19,0.01,0.002415
0.06,0.020921,1.0088,25.571,1.0144,25.712,0.0021989,0,0.0021989,0,0.10603,2.6876,32.9,-106,9.7954,59.465,0,0,0,36030,10607,61.402,0.16736,NaN,102.73,NaN,0.007141,649074,1277.4,0.012891,0.71464,0.18665,0.53398,0.060657,0.12001,NaN,NaN,NaN,NaN,NaN,NaN,NaN,NaN,1.2449e-4,6.155,191.96,84,0,NaN,14.675,1007.4,340.19,0.01,0.0027346
0.07,0.032288,1.2646,25.918,1.2715,26.061,0.0033936,0,0.0033936,0,0.13291,2.7241,32.9,-106,9.7954,54.68,0,0,0,36020,10597,61.389,0.16725,NaN,102.71,NaN,0.0075912,689986,1289.6,0.020733,0.70794,0.26565,0.52727,0.060657,0.12001,NaN,NaN,NaN,NaN,NaN,NaN,NaN,NaN,1.5606e-4,6.155,191.96,84,0,NaN,14.675,1007.4,340.19,0.01,0.002982
0.08,0.04623,1.5238,26.266,1.5322,26.411,0.0048589,0,0.0048589,0,0.16016,2.7607,32.9,-106,9.7954,50.401,0,0,0,36010,10587,61.376,0.16714,NaN,102.7,NaN,0.0080947,735749,1301.9,0.030629,0.70103,0.34514,0.52037,0.060657,0.12001,NaN,NaN,NaN,NaN,NaN,NaN,NaN,NaN,1.8805e-4,6.155,191.96,84,0,NaN,14.675,1007.4,340.19,0.01,0.003207
0.09,0.062782,1.7866,26.614,1.7964,26.76,0.0065986,0,0.0065986,0,0.18778,2.7972,32.9,-106,9.7954,46.592,0,0,0,36000,10577,61.363,0.16702,NaN,102.69,NaN,0.008645,785767,1314.1,0.042556,0.6941,0.42044,0.51344,0.060657,0.12001,NaN,NaN,NaN,NaN,NaN,NaN,NaN,NaN,2.2048e-4,6.155,191.96,84,0,NaN,14.675,1007.4,340.19,0.01,0.0034321
0.1,0.081979,2.0528,26.962,2.0641,27.11,0.0086163,0,0.0086163,0,0.21576,2.8338,32.9,-106,9.7954,43.208,0,0,0,35990,10567,61.35,0.16691,NaN,102.68,NaN,0.0092363,839516,1326.4,0.056468,0.68727,0.48873,0.5066,0.060657,0.12001,NaN,NaN,NaN,NaN,NaN,NaN,NaN,NaN,2.5333e-4,6.155,191.96,84,0,NaN,14.674,1007.4,340.19,0.01,0.0037525
0.11,0.10386,2.3225,27.31,2.3353,27.46,0.010916,0,0.010916,0,0.24411,2.8704,32.9,-106,9.7954,40.145,0,0,0,35980,10557,61.337,0.1668,NaN,102.66,NaN,0.0098538,895642,1338.6,0.072327,0.68072,0.54999,0.50005,0.060658,0.12001,NaN,NaN,NaN,NaN,NaN,NaN,NaN,NaN,2.8662e-4,6.155,191.96,84,0,NaN,14.674,1007.4,340.19,0.01,0.0039469
0.12,0.12845,2.5957,27.655,2.61,27.807,0.0135,0,0.0135,0,0.27282,2.9067,32.9,-106,9.7954,37.416,0,0,0,35970,10547,61.324,0.16668,NaN,102.65,NaN,0.010504,954763,1350.7,0.090048,0.67437,0.60257,0.4937,0.060658,0.12001,NaN,NaN,NaN,NaN,NaN,NaN,NaN,NaN,3.2033e-4,6.155,191.96,84,0,NaN,14.674,1007.4,340.19,0.01,0.0041194
0.13,0.15579,2.8723,27.998,2.8881,28.152,0.016374,0,0.016374,0,0.30189,2.9427,32.9,-106,9.7954,34.981,0,0,0,35960,10537,61.31,0.16657,NaN,102.64,NaN,0.011184,1016555,1362.8,0.10957,0.66826,0.64676,0.48758,0.060658,0.12002,NaN,NaN,NaN,NaN,NaN,NaN,NaN,NaN,3.5447e-4,6.155,191.96,84,0,NaN,14.674,1007.4,340.19,0.01,0.0043421
0.14,0.18591,3.1524,28.341,3.1698,28.497,0.01954,0,0.01954,0,0.33133,2.9787,32.9,-106,9.7954,32.801,0,0,0,35950,10527,61.297,0.16645,NaN,102.63,NaN,0.01189,1080745,1374.8,0.13083,0.6624,0.68324,0.48172,0.060659,0.12002,NaN,NaN,NaN,NaN,NaN,NaN,NaN,NaN,3.8903e-4,6.155,191.96,84,0,NaN,14.674,1007.4,340.19,0.01,0.0045969
0.15,0.21885,3.4359,28.683,3.4548,28.841,0.023002,0,0.023002,0,0.36113,3.0148,32.9,-106,9.7954,30.845,0,0,0,35940,10517,61.284,0.16634,NaN,102.61,NaN,0.012621,1147114,1386.8,0.15378,0.6568,0.71285,0.47612,0.060659,0.12002,NaN,NaN,NaN,NaN,NaN,NaN,NaN,NaN,4.2401e-4,6.155,191.96,84,0,NaN,14.674,1007.4,340.19,0.01,0.0048106
0.16,0.25464,3.7228,29.027,3.7433,29.186,0.026764,0,0.026764,0,0.39128,3.0508,32.9,-106,9.7954,29.137,0,0,0,35930,10507,61.271,0.16622,NaN,102.6,NaN,0.013382,1216289,1398.9,0.17839,0.65139,0.73555,0.47071,0.06066,0.12002,NaN,NaN,NaN,NaN,NaN,NaN,NaN,NaN,4.5942e-4,6.155,191.96,84,0,NaN,14.673,1007.4,340.19,0.01,0.0050675
0.17,0.29332,4.0132,29.37,4.0353,29.532,0.03083,0,0.03083,0,0.4218,3.0869,32.9,-106,9.7954,27.596,0,0,0,35919,10497,61.258,0.16611,NaN,102.59,NaN,0.014162,1287244,1410.9,0.20464,0.64624,0.75335,0.46556,0.06066,0.12003,NaN,NaN,NaN,NaN,NaN,NaN,NaN,NaN,4.9525e-4,6.155,191.96,84,0,NaN,14.673,1007.4,340.19,0.01,0.0053206
0.18,0.33492,4.3069,29.713,4.3307,29.877,0.035202,0,0.035202,0,0.45268,3.123,32.9,-106,9.7954,26.199,0,0,0,35909,10487,61.244,0.16599,NaN,102.58,NaN,0.014961,1359859,1422.9,0.23253,0.64134,0.76702,0.46065,0.060661,0.12003,NaN,NaN,NaN,NaN,NaN,NaN,NaN,NaN,5.3151e-4,6.155,191.96,84,0,NaN,14.673,1007.3,340.19,0.01,0.0055546
0.19,0.37948,4.6042,30.057,4.6295,30.222,0.039885,0,0.039885,0,0.48392,3.1591,32.9,-106,9.7954,24.929,0,0,0,35899,10476,61.231,0.16588,NaN,102.56,NaN,0.015778,1434037,1434.9,0.26203,0.63667,0.77722,0.45598,0.060661,0.12003,NaN,NaN,NaN,NaN,NaN,NaN,NaN,NaN,5.6819e-4,6.155,191.96,84,0,NaN,14.673,1007.3,340.19,0.01,0.0057591
0.2,0.42702,4.9048,30.4,4.9318,30.568,0.044882,0,0.044882,0,0.51552,3.1952,32.9,-106,9.7954,23.771,0,0,0,35889,10466,61.218,0.16576,NaN,102.55,NaN,0.01661,1509693,1447,0.29313,0.63222,0.78452,0.45152,0.060662,0.12004,NaN,NaN,NaN,NaN,NaN,NaN,NaN,NaN,6.0529e-4,6.155,191.96,84,0,NaN,14.672,1007.3,340.19,0.01,0.0059602
0.21,0.47759,5.2089,30.744,5.2376,30.914,0.050197,0,0.050197,0,0.54748,3.2314,32.9,-106,9.7954,22.582,0,0,0,35879,10456,61.204,0.16565,NaN,102.54,NaN,0.017437,1584823,1459,0.32557,0.62807,0.79068,0.44737,0.060663,0.12004,NaN,NaN,NaN,NaN,NaN,NaN,NaN,NaN,6.4282e-4,6.155,191.96,84,0,NaN,14.672,1007.3,340.19,0.01,0.006161
0.22,0.53122,5.5164,31.088,5.5468,31.26,0.055833,0,0.055833,0,0.5798,3.2675,32.9,-106,9.7954,21.49,0,0,0,35869,10446,61.191,0.16553,NaN,102.53,NaN,0.01828,1661432,1471,0.35948,0.62409,0.79438,0.44338,0.060663,0.12004,NaN,NaN,NaN,NaN,NaN,NaN,NaN,NaN,6.8077e-4,6.155,191.96,84,0,NaN,14.672,1007.3,340.19,0.01,0.006382
0.23,0.58794,5.8274,31.432,5.8595,31.606,0.061795,0,0.061795,0,0.61249,3.3037,32.9,-106,9.7954,20.484,0,0,0,35859,10436,61.178,0.16542,NaN,102.51,NaN,0.019138,1739456,1483.1,0.39486,0.62028,0.79603,0.43957,0.060664,0.12005,NaN,NaN,NaN,NaN,NaN,NaN,NaN,NaN,7.1915e-4,6.155,191.96,84,0,NaN,14.671,1007.3,340.19,0.01,0.0065204
0.24,0.64778,6.1418,31.752,6.1757,31.927,0.068085,0,0.068085,0,0.64553,3.3373,32.9,-106,9.7954,19.554,0,0,0,35849,10426,61.165,0.1653,NaN,102.5,NaN,0.020012,1818841,1494.2,0.4317,0.61661,0.79598,0.4359,0.060665,0.12005,NaN,NaN,NaN,NaN,NaN,NaN,NaN,NaN,7.5795e-4,6.155,191.96,84,0,NaN,14.671,1007.3,340.19,0.01,0.0067248
0.25,0.71079,6.4594,32.047,6.495,32.223,0.074707,0,0.074707,0,0.67892,3.3683,32.9,-106,9.7954,18.695,0,0,0,35839,10416,61.151,0.16518,NaN,102.49,NaN,0.020899,1899476,1504.4,0.46997,0.6131,0.79453,0.43238,0.060666,0.12006,NaN,NaN,NaN,NaN,NaN,NaN,NaN,NaN,7.9715e-4,6.155,191.96,84,0,NaN,14.67,1007.3,340.19,0.01,0.0068573
0.26,0.77699,6.78,32.342,6.8174,32.52,0.081665,0,0.081665,0,0.71261,3.3993,32.9,-106,9.7954,17.883,0,0,0,35828,10406,61.138,0.16507,NaN,102.48,NaN,0.021796,1981024,1514.7,0.50954,0.60973,0.79197,0.42901,0.060667,0.12006,NaN,NaN,NaN,NaN,NaN,NaN,NaN,NaN,8.3671e-4,6.155,191.96,84,0,NaN,14.67,1007.3,340.19,0.01,0.007141
0.27,0.84641,7.1035,32.637,7.1427,32.817,0.088961,0,0.088961,0,0.74661,3.4303,32.9,-106,9.7954,17.129,0,0,0,35818,10395,61.124,0.16495,NaN,102.46,NaN,0.022706,2063694,1524.9,0.55049,0.6065,0.78843,0.42576,0.060668,0.12007,NaN,NaN,NaN,NaN,NaN,NaN,NaN,NaN,8.7663e-4,6.155,191.96,84,0,NaN,14.669,1007.3,340.19,0.01,0.0072953
0.28,0.91907,7.43,32.933,7.4709,33.114,0.096599,0,0.096599,0,0.78092,3.4614,32.9,-106,9.7954,16.427,0,0,0,35808,10385,61.111,0.16484,NaN,102.45,NaN,0.023628,2147453,1535.2,0.59258,0.60339,0.7838,0.42264,0.060669,0.12007,NaN,NaN,NaN,NaN,NaN,NaN,NaN,NaN,9.1692e-4,6.155,191.96,84,0,NaN,14.669,1007.3,340.19,0.01,0.0075171
0.29,0.99502,7.7594,33.228,7.8021,33.411,0.10458,0,0.10458,0,0.81555,3.4924,32.9,-106,9.7954,15.773,0,0,0,35798,10375,61.098,0.16472,NaN,102.44,NaN,0.024561,2232273,1545.4,0.63544,0.60039,0.77782,0.41964,0.06067,0.12008,NaN,NaN,NaN,NaN,NaN,NaN,NaN,NaN,9.5757e-4,6.155,191.96,84,0,NaN,14.669,1007.3,340.19,0.01,0.0076577
0.3,1.0743,8.0918,33.524,8.1364,33.708,0.11291,0,0.11291,0,0.85048,3.5235,32.9,-106,9.7954,15.161,0,0,0,35788,10365,61.084,0.1646,NaN,102.42,NaN,0.025506,2318127,1555.7,0.67917,0.5975,0.77091,0.41674,0.060671,0.12008,NaN,NaN,NaN,NaN,NaN,NaN,NaN,NaN,9.9859e-4,6.155,191.96,84,0,NaN,14.668,1007.3,340.19,0.01,0.0078632
0.31,1.1569,8.4271,33.82,8.4735,34.006,0.12159,0,0.12159,0,0.88573,3.5546,32.9,-106,9.7954,14.479,0,0,0,35777,10355,61.071,0.16449,NaN,102.41,NaN,0.026443,2403272,1565.9,0.7221,0.59477,0.76259,0.414,0.060672,0.12009,NaN,NaN,NaN,NaN,NaN,NaN,NaN,NaN,0.00104,6.155,191.96,84,0,NaN,14.667,1007.3,340.19,0.01,0.0080745
0.32,1.2428,8.7654,34.116,8.8137,34.303,0.13063,0,0.13063,0,0.92128,3.5857,32.9,-106,9.7954,13.839,0,0,0,35767,10344,61.057,0.16437,NaN,102.4,NaN,0.027392,2489505,1576.1,0.76573,0.59212,0.75362,0.41135,0.060674,0.1201,NaN,NaN,NaN,NaN,NaN,NaN,NaN,NaN,0.0010817,6.155,191.96,84,0,NaN,14.667,1007.2,340.19,0.01,0.0081996
0.33,1.3322,9.1067,34.412,9.1568,34.601,0.14002,0,0.14002,0,0.95715,3.6168,32.9,-106,9.7954,13.238,0,0,0,35757,10334,61.044,0.16425,NaN,102.39,NaN,0.028353,2576799,1586.4,0.81022,0.58956,0.74428,0.40878,0.060675,0.1201,NaN,NaN,NaN,NaN,NaN,NaN,NaN,NaN,0.0011238,6.155,191.96,84,0,NaN,14.666,1007.2,340.19,0.01,0.0083404
0.34,1.425,9.4509,34.708,9.5029,34.899,0.14977,0,0.14977,0,0.99333,3.6479,32.9,-106,9.7954,12.673,0,0,0,35747,10324,61.03,0.16414,NaN,102.37,NaN,0.029325,2665132,1596.6,0.85566,0.58708,0.73478,0.40629,0.060676,0.12011,NaN,NaN,NaN,NaN,NaN,NaN,NaN,NaN,0.0011663,6.155,191.96,84,0,NaN,14.666,1007.2,340.19,0.01,0.0084568
0.35,1.5212,9.7981,35.004,9.852,35.197,0.15989,0,0.15989,0,1.0298,3.6791,32.9,-106,9.7954,12.141,0,0,0,35737,10314,61.017,0.16402,NaN,102.36,NaN,0.030309,2754485,1606.9,0.90218,0.58467,0.72527,0.40388,0.060678,0.12012,NaN,NaN,NaN,NaN,NaN,NaN,NaN,NaN,0.0012092,6.155,191.96,84,0,NaN,14.665,1007.2,340.19,0.01,0.0085666
0.36,1.621,10.148,35.292,10.204,35.486,0.17037,0,0.17037,0,1.0666,3.7093,32.9,-106,9.7954,11.718,0,0,0,35727,10304,61.003,0.1639,NaN,102.35,NaN,0.031317,2846097,1616.8,0.95205,0.58231,0.71689,0.4015,0.060679,0.12013,NaN,NaN,NaN,NaN,NaN,NaN,NaN,NaN,0.0012524,6.155,191.96,84,0,NaN,14.664,1007.2,340.19,0.01,0.0086742
0.37,1.7242,10.501,35.571,10.559,35.767,0.18122,0,0.18122,0,1.1037,3.7386,32.9,-106,9.7954,11.319,0,0,0,35716,10294,60.99,0.16379,NaN,102.34,NaN,0.032335,2938609,1626.4,1.0034,0.58002,0.70871,0.3992,0.060681,0.12014,NaN,NaN,NaN,NaN,NaN,NaN,NaN,NaN,0.0012959,6.155,191.96,84,0,NaN,14.664,1007.2,340.19,0.01,0.0087861
0.38,1.831,10.857,35.85,10.917,36.047,0.19245,0,0.19245,0,1.1411,3.768,32.9,-106,9.7954,10.941,0,0,0,35706,10283,60.976,0.16367,NaN,102.32,NaN,0.033363,3031988,1636,1.0562,0.5778,0.70078,0.39697,0.060682,0.12014,NaN,NaN,NaN,NaN,NaN,NaN,NaN,NaN,0.0013398,6.155,191.96,84,0,NaN,14.663,1007.2,340.18,0.01,0.0088932
0.39,1.9414,11.216,36.129,11.277,36.328,0.20404,0,0.20404,0,1.1788,3.7973,32.9,-106,9.7954,10.584,0,0,0,35696,10273,60.963,0.16356,NaN,102.31,NaN,0.0344,3126226,1645.6,1.1106,0.57564,0.69311,0.39481,0.060684,0.12015,NaN,NaN,NaN,NaN,NaN,NaN,NaN,NaN,0.0013841,6.155,191.96,84,0,NaN,14.662,1007.2,340.18,0.01,0.0090011
0.4,2.0553,11.577,36.408,11.641,36.608,0.21602,0,0.21602,0,1.2168,3.8266,32.9,-106,9.7954,10.245,0,0,0,35686,10263,60.949,0.16344,NaN,102.3,NaN,0.035447,3221313,1655.2,1.1666,0.57355,0.6857,0.3927,0.060686,0.12016,NaN,NaN,NaN,NaN,NaN,NaN,NaN,NaN,0.0014287,6.155,191.96,84,0,NaN,14.662,1007.1,340.18,0.01,0.0091099
0.41,2.1729,11.941,36.687,12.007,36.889,0.22838,0,0.22838,0,1.2551,3.856,32.9,-106,9.7954,9.9257,0,0,0,35676,10253,60.936,0.16332,NaN,102.28,NaN,0.036503,3317283,1664.8,1.2244,0.57152,0.67861,0.39066,0.060688,0.12017,NaN,NaN,NaN,NaN,NaN,NaN,NaN,NaN,0.0014736,6.155,191.96,84,0,NaN,14.661,1007.1,340.18,0.01,0.0092164
0.42,2.2942,12.308,36.967,12.376,37.17,0.24113,0,0.24113,0,1.2936,3.8853,32.9,-106,9.7954,9.6223,0,0,0,35665,10243,60.922,0.16321,NaN,102.27,NaN,0.037569,3414086,1674.4,1.2843,0.56972,0.67201,0.38885,0.06069,0.12018,NaN,NaN,NaN,NaN,NaN,NaN,NaN,NaN,0.0015189,6.155,191.96,84,0,NaN,14.66,1007.1,340.18,0.01,0.0094859
0.43,2.4191,12.678,37.246,12.748,37.451,0.25426,0,0.25426,0,1.3325,3.9147,32.9,-106,9.7954,9.3336,0,0,0,35655,10232,60.909,0.16309,NaN,102.26,NaN,0.038644,3511718,1684,1.3501,0.56973,0.66772,0.38884,0.060692,0.12019,NaN,NaN,NaN,NaN,NaN,NaN,NaN,NaN,0.0015646,6.155,191.96,84,0,NaN,14.659,1007.1,340.18,0.01,0.0096811
0.44,2.5477,13.05,37.525,13.122,37.732,0.26778,0,0.26778,0,1.3717,3.9441,32.9,-106,9.7954,9.0587,0,0,0,35645,10222,60.895,0.16297,NaN,102.25,NaN,0.039728,3610173,1693.6,1.4181,0.56974,0.66362,0.38884,0.060694,0.12021,NaN,NaN,NaN,NaN,NaN,NaN,NaN,NaN,0.0016105,6.155,191.96,84,0,NaN,14.658,1007.1,340.18,0.01,0.0098191
0.45,2.6801,13.426,37.805,13.5,38.013,0.28169,0,0.28169,0,1.4111,3.9735,32.9,-106,9.7954,8.7967,0,0,0,35635,10212,60.882,0.16286,NaN,102.23,NaN,0.04082,3709445,1703.2,1.4883,0.56975,0.65969,0.38884,0.060696,0.12022,NaN,NaN,NaN,NaN,NaN,NaN,NaN,NaN,0.0016569,6.155,191.96,84,0,NaN,14.658,1007.1,340.18,0.01,0.010049
0.46,2.8163,13.804,38.085,13.88,38.294,0.296,0,0.296,0,1.4509,4.0029,32.9,-106,9.7954,8.5601,0,0,0,35625,10202,60.868,0.16274,NaN,102.22,NaN,0.041925,3809764,1712.9,1.5615,0.56976,0.65613,0.38883,0.060698,0.12023,NaN,NaN,NaN,NaN,NaN,NaN,NaN,NaN,0.0017035,6.155,191.96,84,0,NaN,14.657,1007.1,340.18,0.01,0.010173
0.47,2.9562,14.185,38.364,14.263,38.576,0.31071,0,0.31071,0,1.4909,4.0323,32.9,-106,9.7954,8.3342,0,0,0,35615,10192,60.854,0.16263,NaN,102.21,NaN,0.043038,3910885,1722.5,1.6369,0.56977,0.65274,0.38883,0.0607,0.12024,NaN,NaN,NaN,NaN,NaN,NaN,NaN,NaN,0.0017505,6.155,191.96,84,0,NaN,14.656,1007,340.18,0.01,0.010286
0.48,3.1,14.569,38.633,14.649,38.846,0.32582,0,0.32582,0,1.5312,4.0605,32.9,-106,9.7954,8.1181,0,0,0,35604,10182,60.841,0.16251,NaN,102.19,NaN,0.04416,4012805,1731.7,1.7148,0.56978,0.64949,0.38883,0.060703,0.12025,NaN,NaN,NaN,NaN,NaN,NaN,NaN,NaN,0.0017979,6.155,191.96,84,0,NaN,14.655,1007,340.18,0.01,0.010401
0.49,3.2476,14.955,38.89,15.038,39.105,0.34134,0,0.34134,0,1.5718,4.0875,32.9,-106,9.7954,7.9113,0,0,0,35594,10171,60.827,0.16239,NaN,102.18,NaN,0.045291,4115489,1740.5,1.7951,0.5698,0.6464,0.38882,0.060705,0.12027,NaN,NaN,NaN,NaN,NaN,NaN,NaN,NaN,0.0018456,6.155,191.96,84,0,NaN,14.654,1007,340.18,0.01,0.010517
0.5,3.3991,15.344,39.148,15.429,39.363,0.35726,0,0.35726,0,1.6127,4.1146,32.9,-106,9.7954,7.7134,0,0,0,35584,10161,60.814,0.16228,NaN,102.17,NaN,0.04643,4218907,1749.3,1.8779,0.56981,0.64345,0.38882,0.060708,0.12028,NaN,NaN,NaN,NaN,NaN,NaN,NaN,NaN,0.0018936,6.155,191.96,84,0,NaN,14.653,1007,340.18,0.01,0.010642
0.51,3.5545,15.736,39.405,15.822,39.622,0.37359,0,0.37359,0,1.6539,4.1417,32.9,-106,9.7954,7.5453,0,0,0,35574,10151,60.8,0.16216,NaN,102.16,NaN,0.047581,4323444,1758.1,1.9645,0.56982,0.64095,0.38881,0.06071,0.12029,NaN,NaN,NaN,NaN,NaN,NaN,NaN,NaN,0.0019419,6.155,191.96,84,0,NaN,14.652,1007,340.18,0.01,0.010761
0.52,3.7138,16.13,39.663,16.219,39.881,0.39034,0,0.39034,0,1.6953,4.1687,32.9,-106,9.7954,7.3839,0,0,0,35564,10141,60.787,0.16205,NaN,102.14,NaN,0.04874,4428700,1766.9,2.0536,0.56983,0.63857,0.38881,0.060713,0.12031,NaN,NaN,NaN,NaN,NaN,NaN,NaN,NaN,0.0019906,6.155,191.96,84,0,NaN,14.651,1007,340.18,0.01,0.010873
0.53,3.8771,16.527,39.92,16.618,40.14,0.4075,0,0.4075,0,1.737,4.1958,32.9,-106,9.7954,7.229,0,0,0,35554,10131,60.773,0.16193,NaN,102.13,NaN,0.049907,4534671,1775.7,2.1454,0.56985,0.63629,0.38881,0.060716,0.12032,NaN,NaN,NaN,NaN,NaN,NaN,NaN,NaN,0.0020395,6.155,191.96,84,0,NaN,14.65,1006.9,340.18,0.01,0.010989
0.54,4.0444,16.926,40.178,17.019,40.399,0.42508,0,0.42508,0,1.779,4.2229,32.9,-106,9.7954,7.0801,0,0,0,35544,10121,60.76,0.16182,NaN,102.12,NaN,0.051082,4641356,1784.4,2.2399,0.56986,0.63412,0.3888,0.060719,0.12034,NaN,NaN,NaN,NaN,NaN,NaN,NaN,NaN,0.0020888,6.155,191.96,84,0,NaN,14.649,1006.9,340.18,0.01,0.011097
0.55,4.2156,17.328,40.436,17.423,40.658,0.44308,0,0.44308,0,1.8212,4.25,32.9,-106,9.7954,6.9368,0,0,0,35533,10111,60.746,0.1617,NaN,102.1,NaN,0.052264,4748754,1793.2,2.3371,0.56987,0.63204,0.3888,0.060722,0.12036,NaN,NaN,NaN,NaN,NaN,NaN,NaN,NaN,0.0021384,6.155,191.96,84,0,NaN,14.648,1006.9,340.18,0.01,0.011208
0.56,4.3909,17.732,40.694,17.83,40.918,0.46151,0,0.46151,0,1.8637,4.2771,32.9,-106,9.7954,6.7013,0,0,0,35523,10101,60.733,0.16159,NaN,102.09,NaN,0.053435,4854991,1802,2.4297,0.56989,0.62864,0.38879,0.060725,0.12037,NaN,NaN,NaN,NaN,NaN,NaN,NaN,NaN,0.0021883,6.155,191.96,84,0,NaN,14.646,1006.9,340.17,0.01,0.011315
0.57,4.5703,18.139,40.952,18.239,41.177,0.48036,0,0.48036,0,1.9065,4.3042,32.9,-106,9.7954,6.475,0,0,0,35513,10090,60.719,0.16147,NaN,102.08,NaN,0.054613,4961991,1810.8,2.525,0.5699,0.62542,0.38879,0.060728,0.12039,NaN,NaN,NaN,NaN,NaN,NaN,NaN,NaN,0.0022385,6.155,191.96,84,0,NaN,14.645,1006.8,340.17,0.01,0.011533
0.58,4.7537,18.549,41.21,18.651,41.437,0.49964,0,0.49964,0,1.9496,4.3313,32.9,-106,9.7954,6.2574,0,0,0,35503,10080,60.705,0.16135,NaN,102.07,NaN,0.0558,5069750,1819.6,2.623,0.56992,0.62236,0.38878,0.060731,0.1204,NaN,NaN,NaN,NaN,NaN,NaN,NaN,NaN,0.0022891,6.155,191.96,84,0,NaN,14.644,1006.8,340.17,0.01,0.011676
0.59,4.9413,18.961,41.468,19.066,41.697,0.51935,0,0.51935,0,1.9929,4.3585,32.9,-106,9.7954,6.0481,0,0,0,35493,10070,60.692,0.16124,NaN,102.05,NaN,0.056995,5178263,1828.4,2.7238,0.56993,0.61946,0.38878,0.060734,0.12042,NaN,NaN,NaN,NaN,NaN,NaN,NaN,NaN,0.00234,6.155,191.96,84,0,NaN,14.643,1006.8,340.17,0.01,0.01179
0.6,5.133,19.376,41.701,19.483,41.93,0.5395,0,0.5395,0,2.0365,4.3829,32.9,-106,9.7954,5.8466,0,0,0,35483,10060,60.678,0.16112,NaN,102.04,NaN,0.058199,5287528,1836.3,2.8274,0.56995,0.61671,0.38877,0.060738,0.12044,NaN,NaN,NaN,NaN,NaN,NaN,NaN,NaN,0.0023911,6.155,191.96,84,0,NaN,14.642,1006.8,340.17,0.01,0.011899
0.61,5.3288,19.793,41.821,19.902,42.146,0.56008,0,0.56008,0,2.0803,5.2246,32.9,-106,9.7954,5.7624,0,0,0,35473,10050,60.665,0.16101,114.49,102.03,2.0244,0.059434,5399615,1845,2.9432,0.56997,0.61559,0.38877,0.060741,0.12046,1.4613,2.9581,-1.5911e-4,0,0,0,0,0,0.0024426,6.155,191.96,84,0,NaN,14.64,1006.8,340.17,0.015,0.012042
0.625,5.6304,20.421,42.176,20.535,42.502,0.59187,1.8763e-8,0.59187,1.8164e-6,2.1587,5.2533,32.9,-106,9.7954,5.6748,0,8.9455e-5,0,35460,10038,60.648,0.16087,114.6,102.01,2.0455,0.061301,5569079,1858,3.125,0.56999,0.61443,0.38876,0.060747,0.12049,1.4341,2.9337,4.3737e-4,0,0,0,0,1.0745e-5,0.0025204,6.155,191.96,84,-5.8963e-8,NaN,14.638,1006.7,340.17,0.0225,0.012157
0.6475,6.1006,21.372,42.709,21.493,43.036,0.64178,1.1937e-7,0.64178,1.0657e-5,2.277,5.2969,32.9,-106,9.7954,5.5492,0,2.3285e-4,0,35442,10019,60.623,0.16065,114.77,101.99,2.0762,0.064126,5825559,1877.6,3.4105,0.57003,0.6128,0.38874,0.060755,0.12053,1.3953,2.8968,-3.2188e-4,0,0,0,0,6.6529e-5,0.002638,6.155,191.96,83.998,1.7953e-7,NaN,14.635,1006.7,340.17,0.03375,0.012267
0.68125,6.8463,22.817,43.508,22.949,43.838,0.72164,4.4229e-7,0.72164,3.5116e-5,2.456,5.3732,32.9,-106,9.7954,5.2035,0,4.67e-4,-2.1156e-8,35413,9990.7,60.585,0.16034,115.23,101.95,2.1573,0.068382,6211762,1906.8,3.8498,0.5701,0.60836,0.38872,0.060769,0.12061,1.2902,2.7827,-2.9841e-4,0,0,0,0,2.3533e-4,0.0028169,6.155,191.96,83.994,1.4567e-6,NaN,14.63,1006.6,340.16,0.05,0.012378
0.73125,8.0417,25.002,44.744,25.15,45.08,0.85118,1.3301e-6,0.85118,8.9533e-5,2.7254,5.4975,32.9,-106,9.7954,4.7462,0,8.5218e-4,-1.9308e-8,35372,9948.9,60.529,0.15986,115.86,101.9,2.2691,0.074816,6795510,1943.5,4.5652,0.5702,0.60276,0.38869,0.060792,0.12073,1.1549,2.6198,-2.0783e-4,0,0,0,0,6.5465e-4,0.0030872,6.155,191.96,83.982,5.1116e-6,NaN,14.623,1006.4,340.16,0.05,0.01254
0.78125,9.3478,27.241,45.853,27.406,46.197,0.99433,2.7523e-6,0.99433,1.5859e-4,3.0007,5.623,32.9,-106,9.7954,4.2539,0,0.0012824,-2.4024e-8,35322,9899.4,60.462,0.1593,116.58,101.83,2.3951,0.081395,7392204,1981,5.3518,0.57032,0.5971,0.38865,0.060817,0.12086,1.0139,2.4268,3.0409e-4,0,0,0,0,0.0012526,0.0033644,6.155,191.96,83.963,9.7523e-6,NaN,14.614,1006.3,340.16,0.05,0.01265
0.83125,10.767,29.537,46.957,29.719,47.309,1.1514,4.761e-6,1.1514,2.3691e-4,3.2826,5.7602,32.9,-106,9.7954,3.7894,0,0.001748,-7.0677e-8,35273,9850.3,60.395,0.15875,117.28,101.77,2.5193,0.088135,8003315,2018.4,6.222,0.57045,0.59217,0.3886,0.060844,0.12101,0.88532,2.2288,-5.689e-5,0,0,0,0,0.001985,0.0036484,6.155,191.96,83.936,2.364e-5,NaN,14.605,1006.1,340.15,0.05,0.012783
0.88125,12.303,31.887,48.052,32.086,48.413,1.3227,7.4111e-6,1.3227,3.2102e-4,3.5715,5.9057,32.9,-106,9.7954,3.3994,0,0.0022484,-5.8822e-8,35224,9801.5,60.329,0.1582,117.89,101.71,2.6291,0.095049,8630074,2055.4,7.1892,0.5706,0.5884,0.38855,0.060875,0.12117,0.78076,2.0497,-4.0229e-4,0,0,0,0,0.0028239,0.0039392,6.155,191.96,83.9,4.1665e-5,NaN,14.595,1005.9,340.14,0.05,0.012911
0.93125,13.957,34.292,48.587,34.51,48.955,1.5087,1.076e-5,1.5087,4.0862e-4,3.8679,5.9941,32.9,-106,9.7954,3.139,0,0.0027858,-3.7459e-8,35176,9753.1,60.263,0.15766,118.31,101.64,2.7079,0.10216,9274067,2072.7,8.2708,0.57076,0.58612,0.3885,0.060909,0.12136,0.71269,1.9263,1.6101e-4,0,0,0,0,0.0037529,0.0042369,6.155,191.96,83.855,6.2336e-5,NaN,14.584,1005.7,340.14,0.05,0.013029
0.98125,15.733,36.724,44.699,36.96,45.051,1.7096,1.4866e-5,1.7096,4.982e-4,4.169,5.6276,32.9,-106,9.7954,2.7886,0,0.0033652,-2.3537e-8,35128,9705.2,60.198,0.15713,118.9,101.58,2.8128,0.10931,9922150,1933.9,9.4218,0.57094,0.58325,0.38844,0.060946,0.12155,0.62324,1.7486,3.4893e-5,0,0,0,0,0.0047829,0.0045378,6.155,191.96,83.8,8.6958e-5,NaN,14.573,1005.5,340.13,0.05,0.01314
1.0313,17.625,38.961,36.009,39.215,36.32,1.9252,1.9787e-5,1.9252,5.8888e-4,4.4524,4.7466,32.9,-106,9.7954,2.4312,0,0.0039495,7.7656e-8,35077,9654.5,60.13,0.15663,119.51,101.52,2.9234,0.11588,10516763,1625.8,10.538,0.57111,0.58062,0.38838,0.060982,0.12175,0.53452,1.5571,2.577e-4,0,0,0,0,0.0058623,0.0048149,6.155,191.96,83.734,1.14e-4,NaN,14.56,1005.3,340.12,0.05,0.013268
1.0813,19.618,40.764,26.282,41.033,26.544,2.1537,2.5574e-5,2.1537,6.8035e-4,4.6915,3.7176,32.9,-106,9.7954,2.3065,0,0.0045421,0,35024,9600.9,60.06,0.15621,119.73,101.45,2.9705,0.12123,1.1e7,1281.8,11.516,0.57126,0.57986,0.38833,0.061013,0.12191,0.50421,1.4911,4.4699e-4,0,0,0,0,0.0070848,0.0050383,6.155,191.96,83.657,1.5062e-4,NaN,14.547,1005.1,340.11,0.05,0.013383
1.1313,21.689,42.079,20.307,42.361,20.54,2.393,3.2271e-5,2.393,7.7267e-4,4.8785,3.0861,32.9,-106,9.7954,2.2678,0,0.0051744,-1.3045e-8,34975,9551.8,59.997,0.1559,119.8,101.39,2.9919,0.12516,11354933,1070.6,12.269,0.57137,0.5797,0.38829,0.061037,0.12204,0.49491,1.4719,-1.359e-6,0,0,0,0,0.0086265,0.0052016,6.155,191.96,83.57,2.0596e-4,NaN,14.534,1004.8,340.11,0.05,0.013499
1.1813,23.818,43.096,18.314,43.389,18.543,2.6408,3.991e-5,2.6408,8.6591e-4,5.034,2.9058,32.9,-106,9.7954,2.1995,0,0.0058298,-2.8241e-8,34933,9510.1,59.944,0.15572,119.93,101.34,3.0203,0.1282,11628251,1e3,12.859,0.57146,0.57932,0.38826,0.061056,0.12214,0.47847,1.4345,2.3379e-4,0,0,0,0,0.010438,0.005328,6.155,191.96,83.471,2.7369e-4,NaN,14.52,1004.6,340.1,0.05,0.013632
1.2313,25.996,44.012,18.323,44.316,18.561,2.8961,4.8523e-5,2.8961,9.5995e-4,5.1807,2.9599,32.9,-106,9.7953,2.1273,0,0.0064958,3.6227e-8,34895,9472.1,59.897,0.1556,120.06,101.29,3.0491,0.13094,11874792,1e3,13.403,0.57154,0.57892,0.38824,0.061073,0.12223,0.46124,1.3935,4.3501e-4,0,0,0,0,0.012423,0.0054421,6.155,191.96,83.36,3.5149e-4,NaN,14.506,1004.3,340.09,0.05,0.013746
1.2813,28.22,44.929,18.331,45.244,18.578,3.1589,5.8142e-5,3.1589,0.0010546,5.3302,3.0145,32.9,-106,9.7953,2.091,0,0.0071742,7.4115e-8,34858,9435.1,59.852,0.15549,120.12,101.24,3.0674,0.13371,12122955,1e3,13.967,0.57162,0.57877,0.38821,0.061091,0.12232,0.4526,1.3739,-3.6898e-5,0,0,0,0,0.014534,0.0055563,6.155,191.96,83.237,4.3674e-4,NaN,14.492,1004.1,340.08,0.05,0.013861
1.3313,30.489,45.846,18.339,46.173,18.594,3.4292,6.8804e-5,3.4292,0.0011496,5.4824,3.0732,32.9,-106,9.7953,2.0673,0,0.0078756,1.6672e-7,34821,9398.1,59.806,0.15538,120.17,101.2,3.0821,0.13648,12372091,1e3,14.547,0.57171,0.5787,0.38818,0.061109,0.12242,0.44699,1.3611,-1.0409e-4,0,0,0,0,0.016811,0.0056706,6.155,191.96,83.102,5.219e-4,NaN,14.477,1003.8,340.07,0.05,0.013971
1.3813,32.804,46.764,18.344,47.102,18.612,3.7072,8.0546e-5,3.7072,0.0012449,5.6378,3.1464,32.9,-106,9.7953,1.9974,0,0.0085942,3.4041e-7,34784,9361.1,59.761,0.15528,120.3,101.15,3.1103,0.13925,1.262e7,1e3,15.129,0.5718,0.57834,0.38815,0.061128,0.12252,0.43048,1.3192,-1.1939e-4,0,0,0,0,0.019232,0.005785,6.155,191.96,82.953,6.0515e-4,NaN,14.462,1003.5,340.06,0.05,0.014082
1.4313,35.165,47.681,18.346,48.033,18.631,3.9931,9.3406e-5,3.9931,0.0013403,5.7975,3.2455,32.9,-106,9.7953,1.8249,0,0.0093038,4.1738e-7,34747,9324,59.715,0.15517,120.61,101.1,3.1694,0.14198,12865167,1e3,15.699,0.57189,0.57739,0.38812,0.061146,0.12262,0.3901,1.2143,1.4077e-4,0,0,0,0,0.021681,0.0058996,6.155,191.96,82.792,6.9267e-4,NaN,14.446,1003.3,340.05,0.05,0.014194
1.4813,37.572,48.599,18.347,48.964,18.651,4.287,1.0742e-4,4.287,0.0014357,5.9626,3.3546,32.9,-106,9.7953,1.6406,0,0.0099702,6.0904e-7,34710,9287,59.669,0.15506,120.96,101.06,3.233,0.14471,1.311e7,1e3,16.278,0.57198,0.57646,0.38809,0.061165,0.12272,0.34764,1.1001,-1.7022e-4,0,0,0,0,0.023968,0.0060143,6.155,191.96,82.619,7.895e-4,NaN,14.431,1003,340.04,0.05,0.014304
1.5313,40.025,49.517,18.347,49.895,18.67,4.5894,1.2265e-4,4.5894,0.0015312,6.133,3.4569,32.9,-106,9.7953,1.5316,0,0.010606,7.7035e-7,34673,9250,59.623,0.15495,121.17,101.01,3.2743,0.14748,13357933,1e3,16.888,0.57207,0.576,0.38806,0.061185,0.12283,0.32285,1.031,1.7182e-4,0,0,0,0,0.026116,0.0061291,6.155,191.96,82.434,8.9017e-4,NaN,14.415,1002.7,340.03,0.05,0.014413
1.5813,42.524,50.435,18.346,50.828,18.688,4.9004,1.3912e-4,4.9004,0.0016266,6.3085,3.5596,32.9,-106,9.7953,1.454,0,0.011234,8.8219e-7,34636,9213,59.577,0.15485,121.32,100.97,3.3061,0.15027,13607488,1e3,17.519,0.57217,0.57572,0.38802,0.061205,0.12294,0.30536,0.9814,8.1994e-5,0,0,0,0,0.028223,0.006244,6.155,191.96,82.237,0.0010015,NaN,14.399,1002.4,340.02,0.05,0.014525
1.6313,45.069,51.353,18.342,51.761,18.709,5.2203,1.569e-4,5.2203,0.001722,6.4896,3.6919,32.9,-106,9.7953,1.2619,0,0.011838,1.2653e-6,34599,9176,59.53,0.15474,121.69,100.92,3.3743,0.15301,13853012,1e3,18.136,0.57226,0.57496,0.38799,0.061226,0.12304,0.26255,0.85567,2.0684e-4,0,0,0,0,0.03023,0.006359,6.155,191.96,82.029,0.001117,NaN,14.382,1002.1,340.01,0.05,0.014647
1.6813,47.659,52.27,18.335,52.695,18.73,5.5495,1.7603e-4,5.5495,0.0018174,6.6778,3.8273,32.9,-106,9.7953,1.0884,0,0.012367,1.7724e-6,34562,9138.9,59.484,0.15463,122.03,100.87,3.4377,0.15577,14099481,1e3,18.771,0.57236,0.57438,0.38796,0.061246,0.12315,0.22453,0.73991,-4.2319e-4,0,0,0,0,0.031832,0.0064742,6.155,191.96,81.811,0.0012298,NaN,14.365,1001.8,340,0.05,0.014852
1.7313,50.296,53.187,18.326,53.629,18.753,5.8882,1.9658e-4,5.8882,0.0019128,6.8728,3.9791,32.9,-106,9.7953,0.86566,0,0.012839,2.5674e-6,34525,9101.9,59.438,0.15453,122.48,100.83,3.5183,0.15851,14344134,1e3,19.41,0.57246,0.57375,0.38793,0.061267,0.12327,0.17662,0.58779,3.1195e-4,0,0,0,0,0.033134,0.0065895,6.155,191.96,81.584,0.0013407,NaN,14.348,1001.5,339.99,0.05,0.01506
1.7813,52.978,54.104,18.314,54.564,18.776,6.2369,2.186e-4,6.2369,0.0020082,7.0758,4.1371,32.9,-106,9.7953,0.64106,0,0.013201,3.9642e-6,34488,9064.9,59.391,0.15442,122.95,100.78,3.6012,0.16125,14588724,1e3,20.064,0.57256,0.57328,0.38789,0.061289,0.12338,0.12933,0.43146,7.2362e-5,0,0,0,0,0.033851,0.006705,6.155,191.96,81.35,0.0014579,NaN,14.331,1001.2,339.98,0.05,0.015321
1.8313,55.706,55.02,18.301,55.5,18.799,6.5959,2.4217e-4,6.5959,0.0021036,7.2867,4.2976,32.9,-106,9.7953,0.42759,0,0.013469,6.6863e-6,34451,9027.9,59.345,0.15431,123.4,100.73,3.6821,0.164,14833727,1e3,20.736,0.57266,0.57298,0.38786,0.061311,0.1235,0.085336,0.27984,1.9465e-4,0,0,0,0,0.034072,0.0068205,6.155,191.96,81.11,0.001576,NaN,14.313,1000.9,339.97,0.05,0.015466
1.8813,58.48,55.935,18.287,56.436,18.822,6.9657,2.6735e-4,6.9657,0.0021991,7.5057,4.457,32.9,-106,9.7952,0.23729,0,0.013628,1.3062e-5,34414,8990.9,59.298,0.15421,123.81,100.69,3.7564,0.16676,1.508e7,1e3,21.428,0.57277,0.57287,0.38782,0.061333,0.12362,0.046899,0.14211,-2.9404e-4,0,0,0,0,0.033739,0.0069362,6.155,191.96,80.866,0.0017051,NaN,14.295,1000.5,339.96,0.05,0.01567
1.9313,61.3,56.849,18.27,57.373,18.846,7.3466,2.9422e-4,7.3466,0.0022946,7.7327,4.621,32.9,-106,9.7952,0.038682,0,0.013686,8.8173e-5,34377,8953.9,59.251,0.1541,124.24,100.64,3.835,0.16951,15324909,1e3,22.135,0.57288,0.57288,0.38779,0.061355,0.12374,0.0075671,-0.0036252,-3.444e-4,0,0,0,0,0.032934,0.007052,6.155,191.96,80.62,0.001829,NaN,14.277,1000.2,339.95,0.05,0.015784
1.9813,64.165,57.763,18.248,58.31,18.872,7.7391,3.2284e-4,7.7391,0.0023901,7.9684,4.8137,32.9,-106,9.7952,0.27519,0,-0.013599,1.4161e-5,34340,8916.8,59.204,0.15399,123.73,100.59,3.7589,0.17221,15564690,1e3,22.847,0.57298,0.57312,0.38775,0.061378,0.12386,0.054503,0.23676,4.6487e-4,0,0,0,0,-0.031506,0.007168,6.155,191.96,80.374,0.0019545,NaN,14.258,999.86,339.94,0.05,0.015902
2.0313,67.076,58.675,18.228,59.247,18.896,8.1437,3.5331e-4,8.1437,0.0024858,8.2137,4.9798,32.9,-106,9.7952,0.45878,0,-0.013318,9.0216e-6,34303,8879.8,59.157,0.15389,123.34,100.54,3.703,0.17496,1.581e7,1e3,23.59,0.57309,0.57346,0.38771,0.061401,0.12398,0.091732,0.36896,2.0872e-4,0,0,0,0,-0.029274,0.007284,6.155,191.96,80.131,0.0020899,NaN,14.239,999.52,339.93,0.05,0.016018
2.0813,70.032,59.587,18.209,60.185,18.92,8.5606,3.857e-4,8.5606,0.0025815,8.4666,5.137,32.9,-106,9.7952,0.6046,0,-0.012956,7.1215e-6,34266,8842.8,59.11,0.15378,123.03,100.5,3.6612,0.17774,16055863,1e3,24.35,0.57321,0.57384,0.38767,0.061425,0.12411,0.1218,0.47312,6.7114e-5,0,0,0,0,-0.026852,0.0074002,6.155,191.96,79.895,0.0022394,NaN,14.22,999.17,339.92,0.05,0.016234
2.1313,73.034,60.497,18.192,61.123,18.94,8.9904,4.2011e-4,8.9904,0.0026773,8.7272,5.269,32.9,-106,9.7952,0.65737,0,-0.012493,6.67e-6,34229,8805.8,59.063,0.15367,122.92,100.45,3.6513,0.18055,16305912,1e3,25.129,0.57332,0.57407,0.38764,0.06145,0.12424,0.13279,0.5093,3.4108e-4,0,0,0,0,-0.024195,0.0075165,6.155,191.96,79.666,0.0024022,NaN,14.2,998.82,339.9,0.05,0.016431
2.1813,76.082,61.407,18.179,62.062,18.958,9.4334,4.5663e-4,9.4334,0.0027734,8.9935,5.3809,32.9,-106,9.7952,0.648,0,-0.012022,6.3324e-6,34192,8768.8,59.015,0.15356,122.95,100.4,3.6625,0.1834,16558723,1e3,25.924,0.57344,0.57417,0.38759,0.061475,0.12437,0.13085,0.50114,-2.4749e-4,0,0,0,0,-0.021715,0.0076329,6.155,191.96,79.445,0.002571,NaN,14.18,998.46,339.89,0.05,0.016637
2.2313,79.175,62.316,18.159,63.001,18.98,9.8899,4.9537e-4,9.8899,0.0028699,9.2658,5.5213,32.9,-106,9.7952,0.75588,0,-0.011515,5.4993e-6,34155,8731.7,58.968,0.15346,122.72,100.35,3.6344,0.18618,16805206,1e3,26.724,0.57356,0.57455,0.38755,0.0615,0.12451,0.15348,0.57751,-3.9906e-5,0,0,0,0,-0.019334,0.0077494,6.155,191.96,79.233,0.0027449,NaN,14.16,998.1,339.88,0.05,0.016842
2.2813,82.314,63.224,18.141,63.94,19,10.36,5.3644e-4,10.36,0.0029668,9.5455,5.649,32.9,-106,9.7952,0.83033,0,-0.0109,5.0901e-6,34118,8694.7,58.921,0.15335,122.57,100.31,3.6177,0.18898,17052682,1e3,27.537,0.57368,0.57487,0.38751,0.061526,0.12464,0.16924,0.62904,4.8397e-4,0,0,0,0,-0.016817,0.007866,6.155,191.96,79.031,0.002923,NaN,14.14,997.73,339.87,0.05,0.017043
2.3313,85.497,64.131,18.123,64.88,19.02,10.845,5.7996e-4,10.845,0.0030641,9.831,5.7727,32.9,-106,9.7952,0.90502,0,-0.010235,4.7387e-6,34080,8657.7,58.873,0.15324,122.42,100.26,3.6011,0.19176,17299394,1e3,28.362,0.57381,0.57522,0.38747,0.061552,0.12478,0.18517,0.68077,4.8054e-4,0,0,0,0,-0.014401,0.0079827,6.155,191.96,78.841,0.0031081,NaN,14.119,997.36,339.86,0.05,0.017182
2.3812,88.727,65.037,18.104,65.82,19.04,11.343,6.2602e-4,11.343,0.0031621,10.123,5.8952,32.9,-106,9.7952,0.99083,0,-0.0094798,4.6188e-6,34043,8620.7,58.825,0.15314,122.25,100.21,3.5811,0.19454,17544575,1e3,29.197,0.57393,0.57562,0.38743,0.061578,0.12492,0.20362,0.74124,5.8821e-5,0,0,0,0,-0.012004,0.0080995,6.155,191.96,78.663,0.0033135,NaN,14.098,996.98,339.84,0.05,0.017321
2.4312,92.001,65.942,18.092,66.761,19.055,11.857,6.7478e-4,11.857,0.0032607,10.42,5.9836,32.9,-106,9.7951,0.98754,0,-0.008663,4.5559e-6,34006,8583.7,58.777,0.15303,122.26,100.16,3.5904,0.19736,17793837,1e3,30.045,0.57406,0.57573,0.38739,0.061605,0.12506,0.20292,0.73819,7.9825e-5,0,0,0,0,-0.009741,0.0082165,6.155,191.96,78.5,0.0035516,NaN,14.077,996.6,339.83,0.05,0.01744
2.4812,95.321,66.847,18.083,67.702,19.068,12.385,7.2636e-4,12.385,0.0033602,10.721,6.0504,32.9,-106,9.7951,0.94025,0,-0.0078543,4.4701e-6,33969,8546.7,58.73,0.15292,122.36,100.11,3.614,0.2002,18044944,1e3,30.904,0.57419,0.57571,0.38734,0.061633,0.12521,0.19276,0.70468,-3.6973e-4,0,0,0,0,-0.0077821,0.0083335,6.155,191.96,78.351,0.0038079,NaN,14.055,996.21,339.82,0.05,0.017591
2.5312,98.686,67.752,18.073,68.643,19.082,12.929,7.8093e-4,12.929,0.0034607,11.025,6.1221,32.9,-106,9.7951,0.93079,0,-0.0070514,4.4614e-6,33932,8509.6,58.682,0.15282,122.38,100.07,3.6253,0.20302,18293068,1e3,31.771,0.57432,0.57581,0.3873,0.06166,0.12536,0.19075,0.6979,-3.8791e-4,0,0,0,0,-0.0061001,0.0084507,6.155,191.96,78.217,0.0040799,NaN,14.034,995.81,339.8,0.05,0.019223
2.5812,102.1,68.656,18.066,69.585,19.093,13.488,8.3863e-4,13.488,0.0035624,11.333,6.1798,32.9,-106,9.7951,0.90189,0,-0.006229,4.0933e-6,33895,8472.6,58.633,0.15271,122.44,100.02,3.643,0.20584,18541523,1e3,32.649,0.57445,0.57586,0.38726,0.061688,0.12551,0.18458,0.67708,1.3914e-4,0,0,0,0,-0.004631,0.0085679,6.155,191.96,78.098,0.0043656,NaN,14.011,995.41,339.79,0.05,0.019457
2.6312,105.55,69.559,18.062,70.527,19.102,14.062,8.9963e-4,14.062,0.0036655,11.643,6.215,32.9,-106,9.7951,0.83115,0,-0.0054305,3.9763e-6,33858,8435.6,58.585,0.1526,122.59,99.969,3.6746,0.20868,18791850,1e3,33.539,0.57459,0.57578,0.38721,0.061717,0.12566,0.16951,0.62598,-3.1753e-4,0,0,0,0,-0.0034249,0.0086852,6.155,191.96,77.993,0.0046376,NaN,13.989,995.01,339.78,0.05,0.019712
2.6812,109.05,70.463,18.055,71.47,19.113,14.652,9.6411e-4,14.652,0.00377,11.955,6.2728,32.9,-106,9.7951,0.84463,0,-0.0046559,4.2079e-6,33821,8398.6,58.537,0.1525,122.56,99.921,3.6784,0.21145,19035880,1e3,34.434,0.57472,0.57596,0.38716,0.061746,0.12581,0.17239,0.63678,1.5565e-4,0,0,0,0,-0.002452,0.0088026,6.155,191.96,77.902,0.0049357,NaN,13.966,994.6,339.76,0.05,0.019938
2.7312,112.6,71.366,18.051,72.413,19.122,15.258,0.0010322,15.258,0.0038761,12.27,6.3097,32.9,-106,9.7951,0.82025,0,-0.0038296,4.2952e-6,33784,8361.6,58.489,0.15239,122.61,99.872,3.6948,0.21425,19281337,1e3,35.339,0.57486,0.57603,0.38712,0.061775,0.12597,0.16723,0.61931,3.8147e-4,0,0,0,0,-0.0016161,0.0089202,6.155,191.96,77.825,0.005265,NaN,13.943,994.18,339.75,0.05,0.020181
2.7812,116.19,72.269,18.05,73.357,19.128,15.879,0.0011041,15.879,0.0039839,12.586,6.3296,32.9,-106,9.7951,0.77105,0,-0.0030393,4.3124e-6,33747,8324.5,58.44,0.15228,122.72,99.823,3.7194,0.21705,19527526,1e3,36.255,0.575,0.57603,0.38707,0.061804,0.12612,0.15682,0.58402,-3.6856e-4,0,0,0,0,-9.9186e-4,0.0090378,6.155,191.96,77.764,0.0056053,NaN,13.92,993.76,339.73,0.05,0.02038
2.8312,119.82,73.172,18.049,74.301,19.134,16.517,0.0011801,16.517,0.0040937,12.904,6.3524,32.9,-106,9.7951,0.74908,0,-0.0022587,4.0354e-6,33710,8287.5,58.391,0.15217,122.76,99.774,3.7351,0.21983,19770845,1e3,37.178,0.57514,0.57612,0.38702,0.061834,0.12628,0.1522,0.56869,1.7956e-4,0,0,0,0,-5.3406e-4,0.0091554,6.155,191.96,77.716,0.0059601,NaN,13.896,993.33,339.72,0.05,0.020504
2.8812,123.51,74.075,18.055,75.246,19.136,17.17,0.0012602,17.17,0.0042054,13.221,6.3427,32.9,-106,9.795,0.66408,0,-0.0014952,3.9442e-6,33673,8250.5,58.343,0.15207,122.94,99.725,3.772,0.22265,20017642,1e3,38.116,0.57528,0.57605,0.38698,0.061864,0.12644,0.13436,0.5069,6.167e-5,0,0,0,0,-2.2818e-4,0.0092732,6.155,191.96,77.682,0.0062931,NaN,13.872,992.9,339.71,0.05,0.02063
2.9312,127.23,74.978,18.054,76.191,19.142,17.839,0.0013448,17.839,0.0043192,13.539,6.3623,32.9,-106,9.795,0.66959,0,-7.9442e-4,3.7102e-6,33636,8213.5,58.294,0.15196,122.93,99.676,3.7785,0.22538,20257005,1e3,39.052,0.57543,0.57621,0.38693,0.061894,0.1266,0.13553,0.51214,4.8187e-4,0,0,0,0,-6.2863e-5,0.009391,6.155,191.96,77.662,0.0066218,NaN,13.848,992.46,339.69,0.05,0.020747
2.9812,131,75.882,18.052,77.137,19.148,18.524,0.0014338,18.524,0.004435,13.858,6.3849,32.9,-106,9.795,0.69734,0,-1.6591e-5,3.698e-6,33599,8176.5,58.245,0.15185,122.88,99.627,3.7775,0.22809,20493501,1e3,39.993,0.57557,0.57642,0.38688,0.061924,0.12676,0.14136,0.5344,-4.4266e-4,0,0,0,0,-2.6772e-8,0.009509,6.155,191.96,77.654,0.0069311,NaN,13.823,992.02,339.68,0.05,0.02086
3.0312,134.82,76.785,18.063,78.083,19.147,19.225,0.0015277,19.225,0.004553,14.177,6.3496,32.9,-106,9.795,0.60551,0,7.5362e-4,4.1712e-6,33562,8139.4,58.196,0.15175,123.07,99.578,3.8169,0.23089,20737689,1e3,40.957,0.57572,0.57636,0.38683,0.061956,0.12693,0.12218,0.46608,3.4306e-4,0,0,0,0,5.3916e-5,0.009627,6.155,191.96,77.661,0.007261,NaN,13.799,991.57,339.66,0.05,0.021032
3.0812,138.68,77.689,18.08,79.029,19.14,19.941,0.0016264,19.941,0.0046729,14.492,6.2827,32.9,-106,9.795,0.45878,0,0.0013873,3.9748e-6,33525,8102.4,58.147,0.15164,123.38,99.528,3.8755,0.23373,20985295,1e3,41.942,0.57587,0.57624,0.38678,0.061988,0.1271,0.091894,0.35641,3.2774e-4,0,0,0,0,1.7831e-4,0.009745,6.155,191.96,77.681,0.0075817,NaN,13.774,991.12,339.65,0.05,0.021158
3.1312,142.59,78.594,18.095,79.976,19.135,20.674,0.0017302,20.674,0.004795,14.805,6.2232,32.9,-106,9.795,0.34538,0,0.0018718,4.0281e-6,33488,8065.4,58.097,0.15153,123.63,99.479,3.9232,0.23653,2.123e7,1e3,42.934,0.57602,0.57623,0.38673,0.06202,0.12727,0.068787,0.26954,-1.576e-4,0,0,0,0,3.1699e-4,0.0098631,6.155,191.96,77.71,0.0078818,NaN,13.748,990.66,339.63,0.05,0.021305
3.1812,146.54,79.5,18.117,80.924,19.124,21.422,0.0018391,21.422,0.004919,15.114,6.1243,32.9,-106,9.795,0.1561,0,0.0022127,5.1503e-6,33451,8028.4,58.048,0.15143,124.04,99.429,3.9982,0.2394,2.148e7,1e3,43.962,0.57618,0.57622,0.38667,0.062054,0.12745,0.030789,0.12279,7.3063e-5,0,0,0,0,4.3243e-4,0.0099812,6.155,191.96,77.747,0.0081641,NaN,13.722,990.2,339.61,0.05,0.021504
3.2312,150.54,80.407,18.14,81.871,19.113,22.185,0.0019534,22.185,0.005045,15.418,6.0185,32.9,-106,9.795,0.038375,0,-0.0022759,6.5205e-6,33414,7991.4,57.999,0.15132,124.3,99.379,4.0488,0.24229,21730911,1e3,45.015,0.57634,0.57634,0.38662,0.062088,0.12763,0.0075239,0.030852,-3.8112e-4,0,0,0,0,-4.4669e-4,0.010099,6.155,191.96,77.788,0.0084259,NaN,13.696,989.73,339.6,0.05,0.021684
3.2812,154.58,81.315,18.157,82.82,19.105,22.963,0.0020732,22.963,0.0051728,15.717,5.9434,32.9,-106,9.795,0.15773,0,-0.0021313,-6.1134e-7,33377,7954.4,57.949,0.15121,124.04,99.329,4.0147,0.24511,21976024,1e3,46.064,0.5765,0.57654,0.38657,0.062121,0.12781,0.031121,0.12503,-2.1285e-4,0,0,0,0,-3.8281e-4,0.010217,6.155,191.96,77.828,0.0086671,NaN,13.67,989.26,339.58,0.05,0.021801
3.3312,158.67,82.223,18.167,83.768,19.101,23.757,0.0021985,23.757,0.0053023,16.013,5.8993,32.9,-106,9.7949,0.20964,0,-0.0018672,-1.3735e-6,33340,7917.3,57.899,0.15111,123.93,99.279,4.0048,0.24787,22215855,1e3,47.102,0.57666,0.57673,0.38651,0.062155,0.12799,0.041478,0.16636,6.6616e-5,0,0,0,0,-2.8731e-4,0.010335,6.155,191.96,77.864,0.0089032,NaN,13.644,988.78,339.57,0.05,0.021913
3.3812,162.8,83.132,18.173,84.717,19.099,24.565,0.0023295,24.565,0.0054334,16.307,5.8757,32.9,-106,9.7949,0.2225,0,-0.0015584,-1.7002e-6,33303,7880.3,57.85,0.151,123.9,99.229,4.0089,0.25061,22452678,1e3,48.137,0.57681,0.5769,0.38646,0.062188,0.12816,0.044056,0.17694,4.7044e-4,0,0,0,0,-1.9582e-4,0.010454,6.155,191.96,77.895,0.0091405,NaN,13.617,988.29,339.55,0.05,0.022025
3.4312,166.98,84.042,18.185,85.665,19.091,25.387,0.0024662,25.387,0.0055659,16.6,5.8132,32.9,-106,9.7949,0.31661,0,-0.0011954,-1.9561e-6,33266,7843.3,57.8,0.15089,123.7,99.179,3.9844,0.25343,22696881,1e3,49.224,0.57698,0.57716,0.38641,0.062223,0.12835,0.063002,0.25098,-3.0969e-4,0,0,0,0,-1.1268e-4,0.010572,6.155,191.96,77.92,0.0093682,NaN,13.59,987.8,339.53,0.05,0.022159
3.4812,171.21,84.952,18.199,86.614,19.082,26.225,0.0026088,26.225,0.0056998,16.889,5.7403,32.9,-106,9.7949,0.43249,0,-6.3538e-4,-2.0147e-6,33229,7806.3,57.75,0.15078,123.46,99.128,3.9528,0.25628,22943869,1e3,50.342,0.57715,0.57748,0.38635,0.062259,0.12854,0.086583,0.3427,2.5301e-4,0,0,0,0,-3.1131e-5,0.01069,6.155,191.96,77.937,0.0095699,NaN,13.562,987.31,339.52,0.05,0.022303
3.5312,175.48,85.862,18.203,87.563,19.079,27.076,0.0027574,27.076,0.0058349,17.175,5.7156,32.9,-106,9.7949,0.46364,0,5.7927e-5,-2.4063e-6,33192,7769.3,57.699,0.15068,123.39,99.078,3.9507,0.25907,23184393,1e3,51.435,0.57731,0.57769,0.38629,0.062294,0.12873,0.092978,0.36685,1.2093e-4,0,0,0,0,2.5325e-7,0.010808,6.155,191.96,77.942,0.0097714,NaN,13.534,986.81,339.5,0.05,0.022429
3.5812,179.79,86.773,18.203,88.512,19.077,27.942,0.002912,27.942,0.005971,17.461,5.7054,32.9,-106,9.7949,0.47826,0,7.7571e-4,-2.5924e-6,33155,7732.2,57.649,0.15057,123.37,99.027,3.9544,0.26185,23424383,1e3,52.537,0.57748,0.57788,0.38624,0.062329,0.12891,0.095991,0.37927,4.2786e-4,0,0,0,0,4.4458e-5,0.010926,6.155,191.96,77.934,0.0099733,NaN,13.506,986.3,339.48,0.05,0.022596
3.6312,184.16,87.684,18.204,89.461,19.073,28.822,0.0030727,28.822,0.0061082,17.746,5.6916,32.9,-106,9.7949,0.5095,0,0.0015524,-2.8948e-6,33118,7695.2,57.599,0.15046,123.3,98.977,3.9524,0.26467,23666949,1e3,53.665,0.57765,0.57811,0.38618,0.062366,0.12911,0.10244,0.40425,2.9152e-4,0,0,0,0,1.7431e-4,0.011044,6.155,191.96,77.914,0.010193,NaN,13.478,985.79,339.47,0.05,0.022807
3.6812,188.56,88.595,18.211,90.411,19.065,29.717,0.0032397,29.717,0.0062463,18.03,5.6439,32.9,-106,9.7948,0.60888,0,0.002431,-3.4817e-6,33081,7658.2,57.548,0.15036,123.1,98.926,3.9273,0.26757,23917194,1e3,54.856,0.57783,0.57848,0.38612,0.062404,0.12931,0.12305,0.48316,-1.0575e-4,0,0,0,0,4.1825e-4,0.011162,6.155,191.96,77.878,0.010423,NaN,13.449,985.27,339.45,0.05,0.022932
3.7312,193.02,89.506,18.212,91.36,19.059,30.625,0.003413,30.625,0.0063853,18.311,5.6212,32.9,-106,9.7948,0.67573,0,0.003509,-3.6682e-6,33044,7621.2,57.498,0.15025,122.96,98.875,3.9134,0.27047,24166239,1e3,56.051,0.57801,0.57881,0.38606,0.062442,0.12951,0.13704,0.53519,2.7315e-4,0,0,0,0,8.5298e-4,0.011281,6.155,191.96,77.825,0.010658,NaN,13.42,984.75,339.43,0.05,0.023046
3.7812,197.51,90.417,18.202,92.308,19.059,31.548,0.0035928,31.548,0.0065251,18.593,5.6522,32.9,-106,9.7948,0.66837,0,0.0046477,-3.9636e-6,33007,7584.2,57.447,0.15014,122.98,98.824,3.9247,0.27331,2.441e7,1e3,57.219,0.57819,0.57897,0.386,0.06248,0.12971,0.13551,0.53051,-4.8873e-4,0,0,0,0,0.0014656,0.011399,6.155,191.96,77.751,0.010899,NaN,13.391,984.22,339.41,0.05,0.023234
3.8312,202.06,91.327,18.181,93.257,19.065,32.485,0.0037793,32.485,0.0066658,18.877,5.7375,32.9,-106,9.7948,0.59058,0,0.0057464,-3.3263e-6,32970,7547.2,57.396,0.15004,123.15,98.773,3.9598,0.27609,24648497,1e3,58.36,0.57836,0.57898,0.38594,0.062517,0.12991,0.11928,0.4698,2.7104e-4,0,0,0,0,0.0021957,0.011517,6.155,191.96,77.658,0.011088,NaN,13.362,983.69,339.4,0.05,0.023424
3.8812,206.65,92.236,18.159,94.206,19.071,33.436,0.0039725,33.436,0.0068073,19.167,5.8272,32.9,-106,9.7948,0.52202,0,0.0067114,-2.9194e-6,32933,7510.1,57.346,0.14993,123.29,98.722,3.9919,0.2789,24889220,1e3,59.527,0.57855,0.57903,0.38588,0.062555,0.13011,0.10508,0.41673,-1.3845e-4,0,0,0,0,0.0029353,0.011635,6.155,191.96,77.545,0.011221,NaN,13.332,983.15,339.38,0.05,0.023612
3.9312,211.28,93.144,18.136,95.155,19.075,34.401,0.0041726,34.401,0.0069495,19.46,5.9106,32.9,-106,9.7948,0.47783,0,0.0076101,-3.1605e-6,32896,7473.1,57.295,0.14982,123.39,98.67,4.0159,0.28176,25133654,1e3,60.73,0.57873,0.57913,0.38582,0.062595,0.13032,0.09598,0.38204,2.8089e-4,0,0,0,0,0.0036983,0.011753,6.155,191.96,77.416,0.011313,NaN,13.302,982.61,339.36,0.05,0.023806
3.9812,215.96,94.05,18.105,96.103,19.085,35.382,0.0043797,35.382,0.0070923,19.759,6.0371,32.9,-106,9.7948,0.38059,0,0.0084187,-3.5591e-6,32859,7436.1,57.243,0.14972,123.6,98.619,4.0583,0.28457,25373815,1e3,61.918,0.57891,0.57917,0.38575,0.062634,0.13053,0.076077,0.30403,-7.488e-5,0,0,0,0,0.0044375,0.011871,6.155,191.96,77.272,0.011428,NaN,13.271,982.06,339.34,0.05,0.023994
4.0312,220.69,94.955,18.072,97.052,19.094,36.377,0.0045938,36.377,0.0072355,20.064,6.1626,32.9,-106,9.7947,0.29664,0,0.0090367,-3.4763e-6,32822,7399.1,57.192,0.14961,123.78,98.567,4.0964,0.28741,25616071,1e3,63.133,0.5791,0.57926,0.38569,0.062673,0.13074,0.05905,0.23737,-9.477e-5,0,0,0,0,0.0050129,0.01199,6.155,191.96,77.115,0.011543,NaN,13.241,981.5,339.32,0.05,0.024184
4.0812,225.46,95.858,18.03,98,19.107,37.388,0.0048152,37.388,0.007379,20.376,6.3243,32.9,-106,9.7947,0.16775,0,0.0095062,-3.9435e-6,32785,7362.1,57.141,0.1495,124.06,98.515,4.1507,0.29021,25854058,1e3,64.339,0.57929,0.57934,0.38563,0.062713,0.13095,0.033175,0.13237,1.634e-4,0,0,0,0,0.0054416,0.012108,6.155,191.96,76.947,0.011645,NaN,13.21,980.94,339.3,0.05,0.02438
4.1312,230.27,96.759,17.983,98.948,19.124,38.415,0.0050439,38.415,0.0075229,20.697,6.5051,32.9,-106,9.7947,0.017281,0,0.0096703,-1.112e-5,32748,7325,57.089,0.14939,124.4,98.463,4.2133,0.29298,2.609e7,1e3,65.551,0.57948,0.57948,0.38556,0.062753,0.13116,0.0033913,0.0085182,-1.6989e-4,0,0,0,0,0.0055257,0.012226,6.155,191.96,76.774,0.01177,NaN,13.178,980.38,339.28,0.05,0.024567
4.1812,235.13,97.658,17.939,99.896,19.138,39.458,0.00528,39.458,0.007667,21.026,6.666,32.9,-106,9.7947,0.099003,0,-0.0095635,2.0947e-6,32711,7288,57.038,0.14929,124.22,98.411,4.193,0.29578,26327904,1e3,66.799,0.57967,0.57968,0.3855,0.062793,0.13137,0.019514,0.087593,-4.8661e-4,0,0,0,0,-0.0053028,0.012345,6.155,191.96,76.601,0.011863,NaN,13.147,979.81,339.27,0.05,0.024744
4.2312,240.04,98.554,17.899,100.84,19.148,40.518,0.0055238,40.518,0.0078111,21.363,6.8011,32.9,-106,9.7947,0.17586,0,-0.0092514,2.7577e-6,32674,7251,56.986,0.14918,124.05,98.359,4.1746,0.29863,26569482,1e3,68.078,0.57986,0.57992,0.38543,0.062835,0.13159,0.034807,0.14978,4.6175e-4,0,0,0,0,-0.0048688,0.012463,6.155,191.96,76.431,0.011943,NaN,13.115,979.23,339.25,0.05,0.024913
4.2812,244.99,99.449,17.863,101.79,19.155,41.594,0.0057753,41.594,0.0079554,21.706,6.9172,32.9,-106,9.7947,0.22775,0,-0.008804,2.5457e-6,32637,7214,56.934,0.14907,123.94,98.307,4.1653,0.3015,26812551,1e3,69.378,0.58006,0.58015,0.38537,0.062877,0.13182,0.045204,0.19273,-2.0801e-4,0,0,0,0,-0.0043263,0.012582,6.155,191.96,76.269,0.011981,NaN,13.083,978.65,339.23,0.05,0.025087
4.3312,249.98,100.34,17.823,102.74,19.165,42.688,0.0060346,42.688,0.0080995,22.055,7.0471,32.9,-106,9.7947,0.30233,0,-0.0082276,2.8787e-6,32600,7177,56.882,0.14897,123.79,98.255,4.1482,0.30432,27051522,1e3,70.675,0.58026,0.58042,0.3853,0.062919,0.13204,0.060245,0.25399,2.2354e-4,0,0,0,0,-0.0037089,0.012701,6.155,191.96,76.115,0.011994,NaN,13.05,978.07,339.21,0.05,0.025262
4.3812,255.02,101.23,17.781,103.68,19.177,43.8,0.0063017,43.8,0.0082434,22.411,7.1817,32.9,-106,9.7946,0.38786,0,-0.0074504,3.413e-6,32563,7139.9,56.83,0.14886,123.61,98.202,4.1275,0.30711,27287174,1e3,71.971,0.58046,0.58073,0.38523,0.062961,0.13226,0.077637,0.3231,1.0506e-5,0,0,0,0,-0.0029866,0.012819,6.155,191.96,75.974,0.012005,NaN,13.017,977.48,339.19,0.05,0.025542
4.4312,260.11,102.12,17.745,104.63,19.184,44.93,0.0065768,44.93,0.0083869,22.773,7.2916,32.9,-106,9.7946,0.44762,0,-0.0064888,3.0827e-6,32526,7102.9,56.778,0.14875,123.48,98.15,4.1159,0.30992,27523310,1e3,73.281,0.58066,0.58101,0.38517,0.063003,0.13249,0.089886,0.37181,1.3038e-5,0,0,0,0,-0.0022249,0.012938,6.155,191.96,75.848,0.012043,NaN,12.984,976.88,339.17,0.05,0.025837
4.4812,265.23,103.01,17.724,105.57,19.181,46.078,0.0068598,46.078,0.00853,23.14,7.3317,32.9,-106,9.7946,0.42761,0,-0.0054444,3.445e-6,32489,7065.9,56.726,0.14865,123.53,98.097,4.1319,0.3128,27766229,1e3,74.627,0.58086,0.58119,0.3851,0.063047,0.13272,0.085792,0.35604,9.9251e-5,0,0,0,0,-0.0015378,0.013057,6.155,191.96,75.741,0.012086,NaN,12.951,976.28,339.15,0.05,0.02614
4.5312,270.41,103.89,17.701,106.52,19.18,47.244,0.0071509,47.244,0.0086724,23.507,7.3872,32.9,-106,9.7946,0.43857,0,-0.004452,3.1322e-6,32452,7028.9,56.674,0.14854,123.51,98.044,4.1372,0.31561,28003061,1e3,75.958,0.58107,0.58141,0.38503,0.063091,0.13295,0.08805,0.3652,3.1921e-4,0,0,0,0,-0.0010101,0.013175,6.155,191.96,75.651,0.012144,NaN,12.917,975.67,339.13,0.05,0.026546
4.5812,275.62,104.78,17.682,107.47,19.177,48.428,0.0074501,48.428,0.0088142,23.878,7.4221,32.9,-106,9.7946,0.43485,0,-0.0033742,2.29e-6,32415,6991.9,56.621,0.14843,123.52,97.992,4.1477,0.31842,28238963,1e3,77.295,0.58128,0.58161,0.38496,0.063135,0.13318,0.0873,0.36258,-4.5763e-4,0,0,0,0,-5.701e-4,0.013294,6.155,191.96,75.581,0.012175,NaN,12.883,975.06,339.11,0.05,0.02678
4.6312,280.88,105.66,17.671,108.41,19.169,49.632,0.0077574,49.632,0.0089553,24.249,7.4297,32.9,-106,9.7946,0.40952,0,-0.0023415,3.2534e-6,32378,6954.9,56.569,0.14833,123.58,97.938,4.1656,0.32124,28474911,1e3,78.64,0.58148,0.58178,0.38489,0.063179,0.13342,0.082118,0.34257,4.9981e-4,0,0,0,0,-2.6978e-4,0.013413,6.155,191.96,75.53,0.012237,NaN,12.849,974.44,339.09,0.05,0.027
4.6812,286.19,106.55,17.673,109.36,19.152,50.853,0.0080728,50.853,0.0090955,24.62,7.3808,32.9,-106,9.7945,0.32798,0,-0.0013842,3.3436e-6,32341,6917.8,56.516,0.14822,123.76,97.885,4.2031,0.32411,28715470,1e3,80.016,0.5817,0.58189,0.38482,0.063225,0.13366,0.065504,0.27591,4.2279e-4,0,0,0,0,-9.2624e-5,0.013532,6.155,191.96,75.496,0.012357,NaN,12.815,973.82,339.06,0.05,0.027207
4.7312,291.54,107.43,17.669,110.3,19.14,52.093,0.0083965,52.093,0.009235,24.988,7.3566,32.9,-106,9.7945,0.28653,0,-6.3361e-4,3.6843e-6,32304,6880.8,56.463,0.14811,123.85,97.832,4.2267,0.3269,28949037,1e3,81.373,0.58191,0.58206,0.38475,0.063269,0.13389,0.057113,0.2412,-2.8111e-4,0,0,0,0,-1.9081e-5,0.01365,6.155,191.96,75.478,0.01254,NaN,12.78,973.19,339.04,0.05,0.027407
4.7812,296.93,108.32,17.666,111.24,19.127,53.352,0.0087284,53.352,0.0093736,25.356,7.3333,32.9,-106,9.7945,0.25466,0,9.3271e-5,3.682e-6,32267,6843.8,56.41,0.14801,123.92,97.779,4.2471,0.32967,29179377,1e3,82.726,0.58212,0.58224,0.38468,0.063314,0.13413,0.050683,0.21557,3.773e-4,0,0,0,0,4.0662e-7,0.013769,6.155,191.96,75.474,0.012783,NaN,12.745,972.56,339.02,0.05,0.027761
4.8312,302.37,109.2,17.666,112.19,19.112,54.629,0.0090689,54.629,0.0095116,25.722,7.294,32.9,-106,9.7945,0.21233,0,7.1232e-4,2.8079e-6,32230,6806.8,56.357,0.1479,124.01,97.725,4.2713,0.33243,29409267,1e3,84.088,0.58233,0.58241,0.38461,0.063359,0.13437,0.042172,0.18055,4.4504e-5,0,0,0,0,2.3326e-5,0.013887,6.155,191.96,75.481,0.013052,NaN,12.71,971.92,339,0.05,0.028002
4.8812,307.85,110.08,17.673,113.13,19.093,55.924,0.009418,55.924,0.009649,26.085,7.2253,32.9,-106,9.7945,0.14347,0,0.0012155,2.0037e-6,32193,6769.8,56.304,0.14779,124.17,97.671,4.3049,0.33522,29641105,1e3,85.473,0.58255,0.58258,0.38453,0.063405,0.13461,0.028399,0.1226,-3.8127e-5,0,0,0,0,6.6803e-5,0.014006,6.155,191.96,75.499,0.01334,NaN,12.674,971.28,338.98,0.05,0.028211
4.9312,313.38,110.97,17.692,114.08,19.065,57.237,0.0097759,57.237,0.0097858,26.444,7.1042,32.9,-106,9.7945,0.021606,0,0.0014635,-1.0327e-5,32156,6732.7,56.25,0.14768,124.44,97.618,4.3578,0.33808,29879102,1e3,86.909,0.58277,0.58277,0.38446,0.063452,0.13486,0.0042504,0.017937,2.0656e-4,0,0,0,0,9.5226e-5,0.014124,6.155,191.96,75.523,0.013654,NaN,12.638,970.63,338.96,0.05,0.028413
4.9812,318.95,111.85,17.703,115.02,19.042,58.569,0.010143,58.569,0.0099224,26.796,7.0157,32.9,-106,9.7944,0.059881,0,-0.0013746,-9.293e-6,32119,6695.7,56.197,0.14758,124.36,97.564,4.3534,0.34089,30111646,1e3,88.332,0.58299,0.583,0.38438,0.063499,0.13511,0.011805,0.051364,-7.297e-5,0,0,0,0,-8.2644e-5,0.014243,6.155,191.96,75.549,0.013979,NaN,12.602,969.98,338.94,0.05,0.028624
5.0312,324.56,112.74,17.703,115.96,19.026,59.917,0.010519,59.917,0.010059,27.146,6.97,32.9,-106,9.7944,0.093658,0,-0.0011451,-8.1306e-6,32081,6658.7,56.143,0.14747,124.29,97.51,4.3507,0.34363,30337924,1e3,89.73,0.58321,0.58322,0.38431,0.063545,0.13535,0.018499,0.080712,-4.8522e-4,0,0,0,0,-5.645e-5,0.014361,6.155,191.96,75.572,0.014389,NaN,12.565,969.32,338.91,0.05,0.028827
5.0812,330.22,113.62,17.713,116.9,19.002,61.283,0.010904,61.283,0.010195,27.493,6.8803,32.9,-106,9.7944,0.17488,0,-7.7938e-4,-6.7599e-6,32044,6621.7,56.09,0.14736,124.11,97.456,4.3312,0.34645,30571213,1e3,91.189,0.58343,0.58349,0.38424,0.063593,0.1356,0.034692,0.15071,-9.6563e-5,0,0,0,0,-2.5728e-5,0.014479,6.155,191.96,75.59,0.01485,NaN,12.529,968.66,338.89,0.05,0.029045
5.1312,335.93,114.51,17.727,117.85,18.975,62.666,0.0113,62.666,0.010331,27.834,6.7679,32.9,-106,9.7944,0.28022,0,-9.14e-5,-6.9263e-6,32007,6584.7,56.036,0.14726,123.89,97.401,4.3036,0.34933,30809248,1e3,92.698,0.58366,0.5838,0.38416,0.063642,0.13586,0.055899,0.24087,4.369e-4,0,0,0,0,-3.4806e-7,0.014597,6.155,191.96,75.598,0.01533,NaN,12.491,967.99,338.87,0.05,0.029267
5.1812,341.67,115.4,17.726,118.79,18.956,64.066,0.011705,64.066,0.010468,28.171,6.7155,32.9,-106,9.7944,0.3283,0,8.6885e-4,-8.1972e-6,31970,6547.7,55.982,0.14715,123.79,97.347,4.2962,0.35215,31041343,1e3,94.179,0.58389,0.58409,0.38408,0.063691,0.13612,0.065663,0.28244,-2.3413e-6,0,0,0,0,3.0956e-5,0.014715,6.155,191.96,75.591,0.015873,NaN,12.454,967.31,338.85,0.05,0.029463
5.2312,347.47,116.29,17.723,119.73,18.937,65.483,0.012121,65.483,0.010605,28.506,6.6729,32.9,-106,9.7944,0.37322,0,0.001939,-8.1018e-6,31933,6510.6,55.928,0.14704,123.7,97.292,4.2901,0.35499,31275347,1e3,95.686,0.58413,0.58437,0.384,0.063741,0.13638,0.07483,0.3208,3.3696e-4,0,0,0,0,1.5173e-4,0.014833,6.155,191.96,75.566,0.016414,NaN,12.416,966.63,338.82,0.05,0.029684
5.2812,353.3,117.17,17.713,120.67,18.921,66.917,0.012547,66.917,0.010743,28.839,6.6508,32.9,-106,9.7943,0.40627,0,0.003187,-8.3449e-6,31896,6473.6,55.874,0.14694,123.63,97.238,4.2882,0.35785,3.151e7,1e3,97.213,0.58436,0.58466,0.38392,0.063791,0.13665,0.081606,0.34935,-2.0198e-4,0,0,0,0,4.0343e-4,0.014951,6.155,191.96,75.52,0.016902,NaN,12.379,965.95,338.8,0.05,0.029866
5.3312,359.18,118.06,17.69,121.61,18.911,68.367,0.012985,68.367,0.010883,29.172,6.6845,32.9,-106,9.7943,0.39572,0,0.0044907,-8.7006e-6,31859,6436.6,55.819,0.14683,123.66,97.183,4.3014,0.36068,31742243,1e3,98.722,0.5846,0.58488,0.38384,0.063841,0.13691,0.079457,0.34099,-1.2622e-4,0,0,0,0,7.8861e-4,0.015069,6.155,191.96,75.451,0.017318,NaN,12.34,965.26,338.78,0.05,0.030052
5.3812,365.11,118.94,17.659,122.55,18.904,69.834,0.013435,69.834,0.011023,29.508,6.7481,32.9,-106,9.7943,0.36763,0,0.0057381,-9.8315e-6,31822,6399.6,55.765,0.14672,123.72,97.128,4.3206,0.36352,31974266,1e3,100.24,0.58483,0.58508,0.38376,0.063892,0.13718,0.073722,0.31737,2.9066e-4,0,0,0,0,0.0012677,0.015186,6.155,191.96,75.359,0.017675,NaN,12.302,964.56,338.75,0.05,0.03024
5.4312,371.08,119.82,17.603,123.49,18.912,71.318,0.013897,71.318,0.011164,29.849,6.9126,32.9,-106,9.7943,0.25646,0,0.0068285,-1.3694e-5,31785,6362.6,55.71,0.14662,123.96,97.073,4.3689,0.36624,32196280,1e3,101.69,0.58506,0.58518,0.38369,0.063941,0.13744,0.051146,0.22159,-4.4042e-4,0,0,0,0,0.0017689,0.015304,6.155,191.96,75.245,0.017996,NaN,12.263,963.86,338.73,0.05,0.031742
5.4812,377.09,120.7,17.545,124.42,18.919,72.819,0.014371,72.819,0.011307,30.2,7.0798,32.9,-106,9.7943,0.15142,0,0.0074783,-1.9183e-5,31748,6325.5,55.656,0.14651,124.2,97.018,4.4156,0.369,3.242e7,1e3,103.18,0.5853,0.58534,0.38361,0.063991,0.1377,0.030039,0.13009,1.8577e-4,0,0,0,0,0.0020903,0.015422,6.155,191.96,75.116,0.018253,NaN,12.224,963.16,338.71,0.05,0.031949
5.5312,383.15,121.58,17.491,125.36,18.924,74.338,0.014857,74.338,0.011451,30.557,7.2239,32.9,-106,9.7942,0.07333,0,0.0078641,-3.3719e-5,31711,6288.5,55.601,0.1464,124.37,96.963,4.453,0.37181,32649054,1e3,104.72,0.58554,0.58555,0.38353,0.064042,0.13797,0.014491,0.062475,-2.1231e-5,0,0,0,0,0.0022771,0.01554,6.155,191.96,74.978,0.018393,NaN,12.185,962.45,338.68,0.05,0.032125
5.5812,389.25,122.45,17.432,126.3,18.93,75.875,0.015356,75.875,0.011596,30.922,7.3793,32.9,-106,9.7942,0.011725,0,-0.0079646,-1.7234e-4,31674,6251.5,55.546,0.14629,124.51,96.907,4.4847,0.37461,32876371,1e3,106.27,0.58578,0.58578,0.38345,0.064093,0.13824,0.00231,0.012975,1.5492e-4,0,0,0,0,-0.0023012,0.015657,6.155,191.96,74.835,0.018443,NaN,12.145,961.73,338.66,0.05,0.032375
5.6312,395.39,123.32,17.38,127.23,18.932,77.431,0.015868,77.431,0.011742,31.295,7.5073,32.9,-106,9.7942,0.070202,0,-0.0077876,-2.2751e-5,31637,6214.5,55.491,0.14619,124.39,96.852,4.4734,0.37745,33106769,1e3,107.85,0.58603,0.58604,0.38336,0.064146,0.13852,0.013875,0.064479,1.6678e-4,0,0,0,0,-0.0021673,0.015775,6.155,191.96,74.693,0.018464,NaN,12.105,961.01,338.63,0.05,0.032585
5.6812,401.58,124.19,17.317,128.17,18.94,79.005,0.016393,79.005,0.011889,31.674,7.6708,32.9,-106,9.7942,0.15985,0,-0.0073924,-6.7539e-6,31600,6177.5,55.436,0.14608,124.19,96.796,4.4512,0.38022,33330590,1e3,109.41,0.58627,0.58632,0.38328,0.064198,0.13879,0.031746,0.1429,4.7236e-4,0,0,0,0,-0.0019249,0.015893,6.155,191.96,74.555,0.018434,NaN,12.065,960.29,338.61,0.05,0.032806
5.7312,407.81,125.06,17.251,129.1,18.952,80.598,0.016931,80.598,0.012036,32.062,7.8484,32.9,-106,9.7942,0.26264,0,-0.0065885,-2.7449e-6,31563,6140.4,55.381,0.14597,123.97,96.74,4.4247,0.38294,33549437,1e3,110.95,0.58651,0.58664,0.3832,0.064249,0.13906,0.052445,0.2333,-3.5061e-4,0,0,0,0,-0.0015076,0.016011,6.155,191.96,74.429,0.018333,NaN,12.024,959.56,338.59,0.05,0.033012
